view_state:
  latitude: 40.86
  longitude: 140.751
  zoom: 7.5
areas:
  青森県 むつ市:
    view_state:
      latitude: 41.308
      longitude: 141.065
      zoom: 9.5
    correspondences:
    - towns:
      - 大畑町
    - towns:
      - 大平町
    - towns:
      - 大字関根
    - towns:
      - 大字田名部
    - towns:
      - 川内町
    - towns:
      - 川内町蛎崎
    - towns:
      - 川内町宿野部
    - towns:
      - 川内町桧川
    - towns:
      - 大字城ヶ沢
    - towns:
      - 大字大湊
    - towns:
      - 脇野沢
    - towns:
      - 赤川町
    - towns:
      - 大字奥内
    - towns:
      - 新町
    - towns:
      - 大字中野沢
  青森県 下北郡佐井村:
    view_state:
      latitude: 41.338
      longitude: 140.827
      zoom: 10.0
    correspondences:
    - towns:
      - 大字佐井
    - towns:
      - 大字長後
  青森県 下北郡大間町:
    view_state:
      latitude: 41.488
      longitude: 140.927
      zoom: 11.0
    correspondences:
    - towns:
      - 大字大間
      own: 2
    - towns:
      - 大字奥戸
      own: 2
  青森県 下北郡東通村:
    view_state:
      latitude: 41.28
      longitude: 141.361
      zoom: 10.0
    correspondences:
    - towns:
      - 大字尻屋
    - towns:
      - 大字岩屋
    - towns:
      - 大字尻労
    - towns:
      - 大字野牛
    - towns:
      - 大字蒲野沢
    - towns:
      - 大字大利
    - towns:
      - 大字目名
    - towns:
      - 大字田屋
    - towns:
      - 大字砂子又
    - towns:
      - 大字猿ケ森
    - towns:
      - 大字小田野沢
    - towns:
      - 大字白糠
  青森県 下北郡風間浦村:
    view_state:
      latitude: 41.475
      longitude: 141.015
      zoom: 11.0
    correspondences:
    - towns:
      - 大字蛇浦
      own: 2
    - towns:
      - 大字易国間
    - towns:
      - 大字下風呂
